var locations = [{"lon":"-73.88721","lat":"40.680581","name":"Arlington Branch","address":"203 Arlington Avenue at Warwick Street, Brooklyn, NY 11207   Phone: 718-277-6105","hours":{"0":false,"1":[1000,1800],"2":[1000,1800],"3":[1300,2000],"4":[1000,1800],"5":[1000,1800],"6":false}},{"lon":"-74.029527","lat":"40.633925","name":"Bay Ridge Branch","address":"7223 Ridge Blvd. at 73rd Street,  Brooklyn, NY 11209   Phone: 718-748-5709","hours":{"0":false,"1":[1000,1800],"2":[1300,2000],"3":[1000,1800],"4":[1300,2000],"5":[1000,1800],"6":[1000,1700]}},{"lon":"-73.955913","lat":"40.681633","name":"Bedford Branch","address":"496 Franklin Avenue, Brooklyn, NY 11238   Phone: 718-623-0012","hours":{"0":false,"1":false,"2":[1000,1800],"3":[1300,2000],"4":[1000,1800],"5":[1000,1800],"6":[1000,1700]}},{"lon":"-73.989289","lat":"40.638982","name":"Borough Park Branch","address":"1265 43rd Street at 13th Avenue, Brooklyn,NY 11219   Phone: 718-437-4085","hours":{"0":false,"1":[1000,1800],"2":[1300,2000],"3":[1000,1800],"4":[1300,2000],"5":[1000,1800],"6":[1000,1700]}},{"lon":"-73.966581","lat":"40.576421","name":"Brighton Beach Branch","address":"16 Brighton First Road at Brighton Beach Avenue, Brooklyn,NY 11235   Phone: 718-946-2917","hours":{"0":false,"1":false,"2":[1300,2000],"3":[1000,1800],"4":[1300,2000],"5":[1000,1800],"6":[1000,1700]}},{"lon":"-73.991193","lat":"40.69562","name":"Brooklyn Heights Branch","address":"280 Cadman Plaza West at Tillary Street, Brooklyn, NY 11201   Phone: 718-623-7100","hours":{"0":false,"1":[800,1300],"2":[800,1300],"3":[800,1300],"4":[800,1300],"5":[800,1300],"6":[900,1300]}},{"lon":"-73.948857","lat":"40.675298","name":"Brower Park Branch","address":"725 Street Marks Avenue at Nostrand Avenue, Brooklyn, NY 11216  Phone: 718-773-7208","hours":{"0":false,"1":[1000,1800],"2":[1300,2000],"3":[1000,1800],"4":[1300,2000],"5":[1000,1800],"6":[1000,1700]}},{"lon":"-73.908756","lat":"40.671431","name":"Brownsville Branch","address":"61 Glenmore Avenue at Watkins Street, Brooklyn, NY 11212   Phone: 718-498-9721","hours":{"0":false,"1":[1000,1800],"2":[1300,2000],"3":[1000,1800],"4":[1000,1800],"5":[1000,1800],"6":false}},{"lon":"-73.939343","lat":"40.704622","name":"Bushwick Branch","address":"340 Bushwick Avenue at Seigel Street, Brooklyn, NY 11206   Phone: 718-602-1348","hours":{"0":false,"1":[1000,1800],"2":[1000,1800],"3":[1000,1800],"4":[1300,2000],"5":[1000,1800],"6":false}},{"lon":"-73.991193","lat":"40.69562","name":"Business Library Branch","address":"280 Cadman Plaza W. at Tillary Street, Brooklyn, NY 11201   Phone: 718-623-7000","hours":{"0":false,"1":[800,1300],"2":[800,1300],"3":[800,1300],"4":[800,1300],"5":[800,1300],"6":[900,1300]}},{"lon":"-73.899295","lat":"40.642239","name":"Canarsie Branch","address":"1580 Rockaway Parkway at Avenue J, Brooklyn, NY 11236  Phone: 718-257-6547","hours":{"0":false,"1":[1000,1800],"2":[1000,1800],"3":[1300,2000],"4":[1000,1800],"5":[1000,1800],"6":false}},{"lon":"-73.997955","lat":"40.683275","name":"Carroll Gardens Branch","address":"396 Clinton Street at Union Street, Brooklyn, NY 11231   Phone: 718-596-6972","hours":{"0":false,"1":[1000,1800],"2":[1300,2000],"3":[1300,2000],"4":[1000,1800],"5":[1000,1800],"6":[1000,1700]}},{"lon":"-73.968157","lat":"40.672619","name":"Central Library","address":"Grand Army Plaza, Brooklyn, NY 11238   Phone: 718-230-2100","hours":{"0":[1300,1700],"1":[900,2100],"2":[900,2100],"3":[900,2100],"4":[900,2100],"5":[1000,1800],"6":[1000,1800]}},{"lon":"-73.947778","lat":"40.635846","name":"Clarendon Branch","address":"2035 Nostrand Avenue, Brooklyn, NY 11210   Phone: 718-421-1159","hours":{"0":false,"1":[1000,1800],"2":[1300,2000],"3":[1000,1800],"4":[1000,1800],"5":[1000,1800],"6":false}},{"lon":"-73.965816","lat":"40.687374","name":"Clinton Hill Branch","address":"380 Washington Avenue at Lafayette Avenue, Brooklyn, NY 11238   Phone: 718-398-8713","hours":{"0":false,"1":[1000,1800],"2":[1000,1800],"3":[1300,2000],"4":[1000,1800],"5":[1000,1800],"6":[1000,1700]}},{"lon":"-73.986009","lat":"40.576618","name":"Coney Island Branch","address":"1901 Mermaid Avenue (Near West 19th Street), Brooklyn, NY 11224   Phone: 718-265-3220","hours":{"0":false,"1":[1000,1800],"2":[1000,1800],"3":[1300,2000],"4":[1000,1800],"5":[1000,1800],"6":false}},{"lon":"-73.966105","lat":"40.640601","name":"Cortelyou Branch","address":"1305 Cortelyou Road at Argyle Road, Brooklyn, NY 11226   Phone: 718-693-7763","hours":{"0":false,"1":[1000,1800],"2":[1000,1800],"3":[1300,2000],"4":[1000,1800],"5":[1000,1800],"6":[1000,1700]}},{"lon":"-73.94798","lat":"40.661137","name":"Crown Heights Branch","address":"560 New York Avenue at Maple Street, Brooklyn, NY 11225   Phone: 718-773-1180","hours":{"0":false,"1":[1000,1800],"2":[1300,2000],"3":[1000,1800],"4":[1000,1800],"5":[1000,1800],"6":[1000,1700]}},{"lon":"-73.873926","lat":"40.672612","name":"Cypress Hills Branch","address":"1197 Sutter Avenue at Crystal Street, Brooklyn, NY 11208  Phone: 718-277-6004","hours":{"0":false,"1":false,"2":[1300,2000],"3":[1000,1800],"4":[1000,1800],"5":[1000,1800],"6":[1000,1700]}},{"lon":"-73.928247","lat":"40.69491","name":"DeKalb Branch","address":"790 Bushwick Avenue at DeKalb Avenue, Brooklyn, NY 11221  Phone: 718-455-3898","hours":{"0":false,"1":[1000,1800],"2":[1000,1800],"3":[1300,2000],"4":[1000,1800],"5":[1000,1800],"6":[1000,1700]}},{"lon":"-74.011761","lat":"40.616285","name":"Dyker Branch","address":"8202 13th Avenue at 82nd Street, Brooklyn, NY 11228  Phone: 718-748-6261","hours":{"0":false,"1":[1000,1800],"2":[1300,2000],"3":[1000,1800],"4":[1300,2000],"5":[1000,1800],"6":[1000,1700]}},{"lon":"-73.91519","lat":"40.65569","name":"East Flatbush Branch","address":"9612 Church Avenue at Rockaway Parkway, Brooklyn, NY 11212   Phone: 718-922-0927","hours":{"0":false,"1":false,"2":[1300,2000],"3":[1000,1800],"4":[1000,1800],"5":[1000,1800],"6":[1000,1700]}},{"lon":"-73.933667","lat":"40.668555","name":"Eastern Parkway Branch and Eastern Parkway Learning Center","address":"1044 Eastern Parkway at Schenectady Avenue, Brooklyn, NY 11213   Phone: 718-953-4225","hours":{"0":false,"1":[1000,1800],"2":[1300,2000],"3":[1000,1800],"4":[1300,2000],"5":[1000,1800],"6":[1000,1700]}},{"lon":"-73.958346","lat":"40.652025","name":"Flatbush Branch and Flatbush Learning Center","address":"22 Linden Blvd. at \t Avenue, Brooklyn NY 11226   Phone: 718-856-0813","hours":{"0":false,"1":false,"2":[1300,2000],"3":[1000,1800],"4":[1000,1800],"5":[1000,1800],"6":[1000,1700]}},{"lon":"-73.933205","lat":"40.619534","name":"Flatlands Branch","address":"2065 Flatbush Avenue at Avenue P, Brooklyn, NY 11234   Phone: 718-253-4409","hours":{"0":false,"1":false,"2":[1300,2000],"3":[1000,1800],"4":[1300,2000],"5":[1000,1800],"6":[1000,1700]}},{"lon":"-74.031145","lat":"40.61649","name":"Fort Hamilton Branch","address":"9424 Fourth Avenue, Brooklyn, NY 11209   Phone: 718-748-6919","hours":{"0":false,"1":[1000,1800],"2":[1300,2000],"3":[1000,1800],"4":[1300,2000],"5":[1000,1800],"6":[1000,1700]}},{"lon":"-73.923702","lat":"40.591344","name":"Gerritsen Beach Branch","address":"2808 Gerritsen Avenue (Bartlett Place), Brooklyn, NY 11229   Phone: 718-368-1435","hours":{"0":false,"1":[1000,1800],"2":[1300,2000],"3":[1000,1800],"4":[1000,1800],"5":[1000,1800],"6":false}},{"lon":"-73.971805","lat":"40.590471","name":"Gravesend Branch","address":"303 Avenue X at West 2nd Street, Brooklyn, NY 11223   Phone: 718-382-5792","hours":{"0":false,"1":[1000,1800],"2":[1300,2000],"3":[1000,1800],"4":[1300,2000],"5":[1000,1800],"6":false}},{"lon":"-73.950706","lat":"40.725914","name":"Greenpoint Branch","address":"107 Norman Avenue at Leonard Street, Brooklyn, NY 11222   Phone: 718-349-8504","hours":{"0":false,"1":[1000,1800],"2":[1000,1800],"3":[1300,2000],"4":[1300,2000],"5":[1000,1800],"6":[1000,1700]}},{"lon":"-73.986156","lat":"40.605726","name":"Highlawn Branch","address":"1664 West 13th Street at Kings Highway, Brooklyn, NY 11223   Phone: 718-234-7208","hours":{"0":false,"1":false,"2":[1000,1800],"3":[1300,2000],"4":[1300,2000],"5":[1000,1800],"6":[1000,1700]}},{"lon":"-73.96077","lat":"40.595286","name":"Homecrest Branch","address":"2525 Coney Island Avenue at Avenue V, Brooklyn, NY 11223   Phone: 718-382-5924","hours":{"0":false,"1":[1000,1800],"2":[1300,2000],"3":[1000,1800],"4":[1300,2000],"5":[1000,1800],"6":false}},{"lon":"-73.889616","lat":"40.634105","name":"Jamaica Bay Branch","address":"9727 Seaview Avenue at East 98th Street (near Rockaway Parkway), Brooklyn, NY 11236   Phone: 718-241-3571","hours":{"0":false,"1":false,"2":[1000,1800],"3":[1300,2000],"4":[1000,1800],"5":[1000,1800],"6":[1000,1700]}},{"lon":"-73.974739","lat":"40.63579","name":"Kensington Branch","address":"410 Ditmas Avenue (between East 4th & East 5th Street), Brooklyn, NY 11218   Phone: 718-435-9431","hours":{"0":false,"1":[1000,1800],"2":[1300,2000],"3":[1000,1800],"4":[1300,2000],"5":[1000,1800],"6":[1000,1700]}},{"lon":"-73.940968","lat":"40.594783","name":"Kings Bay Branch","address":"3650 Nostrand Avenue (near Avenue W), Brooklyn, NY 11229   Phone: 718-368-1709","hours":{"0":[1300,1700],"1":[1000,1800],"2":[1000,2000],"3":[1000,2000],"4":[1000,2000],"5":[1000,1800],"6":[1000,1700]}},{"lon":"-73.953317","lat":"40.610237","name":"Kings Hwy Highway Branch","address":"2115 Ocean Avenue (near Kings Highway), Brooklyn, NY 11229   Phone: 718-375-3037","hours":{"0":[1300,1700],"1":[1000,1800],"2":[1000,2000],"3":[1000,2000],"4":[1000,2000],"5":[1000,1800],"6":[1000,1700]}},{"lon":"-73.948167","lat":"40.713572","name":"Leonard Branch","address":"81 Devoe Street at Leonard Street, Brooklyn, NY 11211   Phone: 718-486-3365","hours":{"0":false,"1":[1000,1800],"2":[1300,2000],"3":[1000,1800],"4":[1000,1800],"5":[1000,1800],"6":[1000,1700]}},{"lon":"-73.934932","lat":"40.683214","name":"Macon Branch","address":"361 Lewis Avenue at Macon Street, Brooklyn, NY 11233   Phone: 718-573-5606","hours":{"0":false,"1":[1000,1800],"2":[1300,2000],"3":[1000,1800],"4":[1000,1800],"5":[1000,1800],"6":[1000,1700]}},{"lon":"-73.989438","lat":"40.623182","name":"Mapleton Branch","address":"1702 60th Street, Brooklyn, NY 11204   Phone: 718-256-2117","hours":{"0":false,"1":[1000,1800],"2":[1300,2000],"3":[1000,1800],"4":[1300,2000],"5":[1000,1800],"6":[1000,1700]}},{"lon":"-73.951378","lat":"40.69149","name":"Marcy Branch","address":"617 DeKalb Avenue at Nostrand Avenue, Brooklyn, NY 11216   Phone: 718-935-0032","hours":{"0":false,"1":[800,1300],"2":[800,1300],"3":[800,1300],"4":[800,1300],"5":[800,1300],"6":[900,1300]}},{"lon":"-74.011665","lat":"40.629212","name":"McKinley Park Branch","address":"6802 Fort Hamilton Parkway at 68th Street, Brooklyn, NY 11219   Phone: 718-748-8001","hours":{"0":false,"1":[1000,1800],"2":[1300,2000],"3":[1000,1800],"4":[1300,2000],"5":[1000,1800],"6":[1000,1700]}},{"lon":"-73.960427","lat":"40.625972","name":"Midwood Branch","address":"975 East 16th Street at Avenue J, Brooklyn, NY 11230   Phone: 718-252-0967","hours":{"0":false,"1":[1000,1800],"2":[1300,2000],"3":[1000,1800],"4":[1300,2000],"5":[1000,1800],"6":false}},{"lon":"-73.917144","lat":"40.619986","name":"Mill Basin Branch","address":"2385 Ralph Avenue (near Ave N), Brooklyn, NY 11234   Phone: 718-241-3973","hours":{"0":false,"1":false,"2":[1000,1800],"3":[1300,2000],"4":[1000,1800],"5":[1000,1800],"6":[1000,1700]}},{"lon":"-73.885911","lat":"40.665136","name":"New Lots Branch","address":"665 New Lots Avenue at Barbey Street, Brooklyn, NY 11207   Phone: 718-649-0311","hours":{"0":false,"1":[1000,1800],"2":[1300,2000],"3":[1300,2000],"4":[1300,2000],"5":[1000,1800],"6":[1000,1700]}},{"lon":"-74.00358","lat":"40.607977","name":"New Utrecht Branch","address":"1743 86th Street at Bay 17th Street, Brooklyn, NY 11214   Phone: 718-236-4086","hours":{"0":false,"1":[1000,1800],"2":[1300,2000],"3":[1300,2000],"4":[1300,2000],"5":[1000,1800],"6":[1000,1700]}},{"lon":"-73.978593","lat":"40.683623","name":"Pacific Branch","address":"25 Fourth Avenue at Pacific Street, Brooklyn, NY 11217   Phone: 718-638-1531","hours":{"0":false,"1":false,"2":[1000,1800],"3":[1300,2000],"4":[1000,1800],"5":[1000,1800],"6":[1000,1700]}},{"lon":"-73.919856","lat":"40.632638","name":"Paerdegat Branch","address":"850 East 59th Street at Paerdegat Avenue South, Brooklyn, NY 11234   Phone: 718-241-3994","hours":{"0":false,"1":[1000,1800],"2":[1000,1800],"3":[1300,2000],"4":[1000,1800],"5":[1000,1800],"6":false}},{"lon":"-73.983527","lat":"40.668191","name":"Park Slope Branch","address":"431 6th Avenue at 9th Street, Brooklyn, NY 11215   Phone: 718-832-1853","hours":{"0":false,"1":[1000,1800],"2":[1300,2000],"3":[1000,1800],"4":[1300,2000],"5":[1000,1800],"6":[1000,1700]}},{"lon":"-74.010209","lat":"40.675326","name":"Red Hook Branch","address":"7 Wolcott Street at Dwight Street, Brooklyn, NY 11231   Phone: 718-935-0203","hours":{"0":false,"1":[1000,1800],"2":[1300,2000],"3":[1000,1800],"4":[1000,1800],"5":[1000,1800],"6":false}},{"lon":"-73.930225","lat":"40.64863","name":"Rugby Branch","address":"1000 Utica Avenue (near Tilden Avenue), Brooklyn, NY 11203   Phone: 718-566-0054","hours":{"0":false,"1":[1000,1800],"2":[1300,2000],"3":[1000,1800],"4":[1000,1800],"5":[1000,1800],"6":false}},{"lon":"-73.975861","lat":"40.615885","name":"Ryder Branch","address":"5902 23rd Avenue (between 23rd Avenue at 59th Street) Brooklyn, NY 11204   Phone: 718-331-2962","hours":{"0":false,"1":[1000,1800],"2":[1300,2000],"3":[1000,1800],"4":[1300,2000],"5":[1000,1800],"6":false}},{"lon":"-73.915051","lat":"40.684878","name":"Saratoga Branch","address":"8 Thomas S. Boyland Street at Macon Street, Brooklyn, NY 11233   Phone: 718-573-5224","hours":{"0":false,"1":false,"2":[1300,2000],"3":[1000,1800],"4":[1000,1800],"5":[1000,1800],"6":[1000,1700]}},{"lon":"-73.955225","lat":"40.586881","name":"Sheepshead Bay Branch","address":"2636 East 14th Street at Avenue Z (between Sheepshead Bay Road and Shore Parkway, Brooklyn, NY 11235   Phone: 718-368-1815","hours":{"0":false,"1":false,"2":[1000,1800],"3":[1300,2000],"4":[1300,2000],"5":[1000,1800],"6":[1000,1700]}},{"lon":"-73.885815","lat":"40.653134","name":"Spring Creek Branch","address":"12143 Flonlands Avenue (near New Jersey Avenue), Brooklyn, NY 11207   Phone: 718-257-6571","hours":{"0":false,"1":[1000,1800],"2":[1000,1800],"3":[1300,2000],"4":[1000,1800],"5":[1000,1800],"6":false}},{"lon":"-73.905318","lat":"40.664314","name":"Stone Avenue Branch","address":"581 Mother Gaston Blvd., Brooklyn, NY 11212   Phone: 718-485-8347","hours":{"0":false,"1":false,"2":[1000,1800],"3":[1000,1800],"4":[1300,2000],"5":[1000,1800],"6":[1000,1700]}},{"lon":"-74.013483","lat":"40.645866","name":"Sunset Park Branch","address":"5108 4th Avenue at 51st Street, Brooklyn, NY 11220   Phone: 718-567-2806","hours":{"0":false,"1":[1000,1800],"2":[1300,2000],"3":[1000,1800],"4":[1300,2000],"5":[1000,1800],"6":[1000,1700]}},{"lon":"-73.988654","lat":"40.59278","name":"Ulmer Park Branch","address":"2602 Bath Avenue at 26th Avenue, Brooklyn, NY 11214   Phone: 718-265-3443","hours":{"0":false,"1":[1000,1800],"2":[1300,2000],"3":[1000,1800],"4":[1300,2000],"5":[1000,1800],"6":[1000,1700]}},{"lon":"-73.9784","lat":"40.695535","name":"Walt Whitman Branch","address":"93 Saint Edwards Street (between Myrtle and Park Avenues), Brooklyn, NY 11205   Phone: 718-935-0244","hours":{"0":false,"1":[1000,1800],"2":[1000,1800],"3":[1300,2000],"4":[1000,1800],"5":[1000,1800],"6":false}},{"lon":"-73.912285","lat":"40.69768","name":"Washington Irving Branch","address":"360 Irving Avenue at Woodbine Street, Brooklyn, NY 11237   Phone: 718-628-8378","hours":{"0":false,"1":[1000,1800],"2":[1000,1800],"3":[1000,1800],"4":[1300,2000],"5":[1000,1800],"6":false}},{"lon":"-73.958252","lat":"40.707063","name":"Williamsburgh Wmsburgh Branch","address":"240 Division Avenue at Marcy Avenue, Brooklyn, NY 11211   Phone: 718-302-3485","hours":{"0":false,"1":[1000,1800],"2":[1300,2000],"3":[1000,1800],"4":[1000,1800],"5":[1000,1800],"6":false}},{"lon":"-73.976722","lat":"40.648817","name":"Windsor Terrace Branch","address":"160 East 5th Street at Fort Hamilton Parkway, Brooklyn, NY 11218   Phone: 718-686-9707","hours":{"0":false,"1":[1000,1800],"2":[1000,1800],"3":[1300,2000],"4":[1000,1800],"5":[1000,1800],"6":[1000,1700]}}]